[
  { "slug": "new-york-ny", "name": "New York, NY", "state": "NY", "lat": 40.7128, "lng": -74.0060 },
  { "slug": "los-angeles-ca", "name": "Los Angeles, CA", "state": "CA", "lat": 34.0522, "lng": -118.2437 },
  { "slug": "san-diego-ca", "name": "San Diego, CA", "state": "CA", "lat": 32.7157, "lng": -117.1611 },
  { "slug": "san-jose-ca", "name": "San Jose, CA", "state": "CA", "lat": 37.3382, "lng": -121.8863 },
  { "slug": "san-francisco-ca", "name": "San Francisco, CA", "state": "CA", "lat": 37.7749, "lng": -122.4194 },
  { "slug": "santa-clara-ca", "name": "Santa Clara, CA", "state": "CA", "lat": 37.3541, "lng": -121.9552 },
  { "slug": "oakland-ca", "name": "Oakland, CA", "state": "CA", "lat": 37.8044, "lng": -122.2712 },
  { "slug": "sacramento-ca", "name": "Sacramento, CA", "state": "CA", "lat": 38.5816, "lng": -121.4944 },
  { "slug": "long-beach-ca", "name": "Long Beach, CA", "state": "CA", "lat": 33.7701, "lng": -118.1937 },
  { "slug": "anaheim-ca", "name": "Anaheim, CA", "state": "CA", "lat": 33.8366, "lng": -117.9143 },
  { "slug": "chicago-il", "name": "Chicago, IL", "state": "IL", "lat": 41.8781, "lng": -87.6298 },
  { "slug": "dallas-tx", "name": "Dallas, TX", "state": "TX", "lat": 32.7767, "lng": -96.7970 },
  { "slug": "houston-tx", "name": "Houston, TX", "state": "TX", "lat": 29.7604, "lng": -95.3698 },
  { "slug": "phoenix-az", "name": "Phoenix, AZ", "state": "AZ", "lat": 33.4484, "lng": -112.0740 },
  { "slug": "philadelphia-pa", "name": "Philadelphia, PA", "state": "PA", "lat": 39.9526, "lng": -75.1652 },
  { "slug": "san-antonio-tx", "name": "San Antonio, TX", "state": "TX", "lat": 29.4241, "lng": -98.4936 },
  { "slug": "austin-tx", "name": "Austin, TX", "state": "TX", "lat": 30.2672, "lng": -97.7431 },
  { "slug": "jacksonville-fl", "name": "Jacksonville, FL", "state": "FL", "lat": 30.3322, "lng": -81.6557 },
  { "slug": "fort-worth-tx", "name": "Fort Worth, TX", "state": "TX", "lat": 32.7555, "lng": -97.3308 },
  { "slug": "columbus-oh", "name": "Columbus, OH", "state": "OH", "lat": 39.9612, "lng": -82.9988 },
  { "slug": "charlotte-nc", "name": "Charlotte, NC", "state": "NC", "lat": 35.2271, "lng": -80.8431 },
  { "slug": "indianapolis-in", "name": "Indianapolis, IN", "state": "IN", "lat": 39.7684, "lng": -86.1581 },
  { "slug": "seattle-wa", "name": "Seattle, WA", "state": "WA", "lat": 47.6062, "lng": -122.3321 },
  { "slug": "denver-co", "name": "Denver, CO", "state": "CO", "lat": 39.7392, "lng": -104.9903 },
  { "slug": "washington-dc", "name": "Washington, DC", "state": "DC", "lat": 38.9072, "lng": -77.0369 },
  { "slug": "boston-ma", "name": "Boston, MA", "state": "MA", "lat": 42.3601, "lng": -71.0589 },
  { "slug": "nashville-tn", "name": "Nashville, TN", "state": "TN", "lat": 36.1627, "lng": -86.7816 },
  { "slug": "orlando-fl", "name": "Orlando, FL", "state": "FL", "lat": 28.5383, "lng": -81.3792 },
  { "slug": "tampa-fl", "name": "Tampa, FL", "state": "FL", "lat": 27.9506, "lng": -82.4572 },
  { "slug": "miami-fl", "name": "Miami, FL", "state": "FL", "lat": 25.7617, "lng": -80.1918 },
  { "slug": "atlanta-ga", "name": "Atlanta, GA", "state": "GA", "lat": 33.4484, "lng": -84.3880 }
 ]